[
  {
    "sources": ["tr_src1", "tr_src2"],
    "id": "TR_001",
    "description": "Police intervention during peaceful protest in Taksim Square using excessive force against demonstrators.",
    "date": "06/01/2024",
    "location": "Taksim Square, Istanbul",
    "latitude": "41.0369",
    "longitude": "28.9850",
    "graphic": "FALSE",
    "associations": ["tr_asc1"],
    "time": "14:30",
    "responsible_party": "Istanbul Police Department",
    "impact": "Multiple injuries, 15 detained"
  },
  {
    "sources": ["tr_src3", "tr_src4", "tr_src5"],
    "id": "TR_002",
    "description": "Court sentences journalist to prison for reporting on government corruption allegations.",
    "date": "05/15/2024",
    "location": "Istanbul Courthouse",
    "latitude": "41.0082",
    "longitude": "28.9784",
    "graphic": "FALSE",
    "associations": ["tr_asc2"],
    "time": "10:00",
    "responsible_party": "Istanbul Heavy Penal Court",
    "impact": "2-year prison sentence, press freedom concerns"
  },
  {
    "sources": ["tr_src6"],
    "id": "TR_003",
    "description": "Social media platform access blocked following government directive.",
    "date": "04/20/2024",
    "location": "Nationwide",
    "latitude": "39.9334",
    "longitude": "32.8597",
    "graphic": "FALSE",
    "associations": ["tr_asc3"],
    "time": "09:00",
    "responsible_party": "Information and Communication Technologies Authority (BTK)",
    "impact": "Nationwide access restriction affecting millions"
  },
  {
    "sources": ["tr_src7", "tr_src8"],
    "id": "TR_004",
    "description": "University students detained during peaceful demonstration for academic freedom.",
    "date": "03/08/2024",
    "location": "Boğaziçi University, Istanbul",
    "latitude": "41.0863",
    "longitude": "29.0445",
    "graphic": "FALSE",
    "associations": ["tr_asc4"],
    "time": "12:15",
    "responsible_party": "Istanbul Police",
    "impact": "25 students detained, investigation opened"
  },
  {
    "sources": ["tr_src9", "tr_src10"],
    "id": "TR_005",
    "description": "Opposition politician arrested on terrorism charges following critical speech.",
    "date": "02/12/2024",
    "location": "Ankara",
    "latitude": "39.9334",
    "longitude": "32.8597",
    "graphic": "FALSE",
    "associations": ["tr_asc5"],
    "time": "06:00",
    "responsible_party": "Ankara Chief Public Prosecutor's Office",
    "impact": "Political opposition silenced, international criticism"
  },
  {
    "sources": ["tr_src11"],
    "id": "TR_006",
    "description": "LGBTI+ rights advocacy group's event banned by local authorities.",
    "date": "01/30/2024",
    "location": "Izmir",
    "latitude": "38.4192",
    "longitude": "27.1287",
    "graphic": "FALSE",
    "associations": ["tr_asc6"],
    "time": "16:00",
    "responsible_party": "Izmir Governor's Office",
    "impact": "Event cancelled, discrimination concerns raised"
  },
  {
    "sources": ["tr_src12", "tr_src13"],
    "id": "TR_007",
    "description": "Lawyer detained while defending clients in politically sensitive case.",
    "date": "01/15/2024",
    "location": "Ankara Courthouse",
    "latitude": "39.9208",
    "longitude": "32.8541",
    "graphic": "FALSE",
    "associations": ["tr_asc7"],
    "time": "11:00",
    "responsible_party": "Ankara Police",
    "impact": "Legal profession under pressure, fair trial concerns"
  },
  {
    "sources": ["tr_src14"],
    "id": "TR_008",
    "description": "Environmental activists arrested during protest against mining project.",
    "date": "12/10/2023",
    "location": "Artvin",
    "latitude": "41.1828",
    "longitude": "41.8183",
    "graphic": "FALSE",
    "associations": ["tr_asc1"],
    "time": "08:30",
    "responsible_party": "Local Gendarmerie",
    "impact": "12 activists detained, environmental concerns ignored"
  },
  {
    "sources": ["tr_src15", "tr_src16"],
    "id": "TR_009",
    "description": "Television news program suspended for broadcasting opposition views.",
    "date": "11/25/2023",
    "location": "Istanbul (TV Station)",
    "latitude": "41.0082",
    "longitude": "28.9784",
    "graphic": "FALSE",
    "associations": ["tr_asc3"],
    "time": "20:00",
    "responsible_party": "Radio and Television Supreme Council (RTÜK)",
    "impact": "Program cancelled, media censorship increased"
  },
  {
    "sources": ["tr_src17"],
    "id": "TR_010",
    "description": "Women's rights demonstration dispersed with tear gas and water cannons.",
    "date": "11/08/2023",
    "location": "Kadıköy, Istanbul",
    "latitude": "40.9833",
    "longitude": "29.0167",
    "graphic": "FALSE",
    "associations": ["tr_asc1"],
    "time": "15:45",
    "responsible_party": "Istanbul Police",
    "impact": "Several injured, women's rights activism suppressed"
  }
]
